[
  {
    "id": "cade-kennedy",
    "name": "CADE Kennedy",
    "address": "Calle 36 Bis Sur No. 78K-40",
    "oldLat": 4.64,
    "oldLng": -74.153,
    "newLat": 4.63035,
    "newLng": -74.15267,
    "score": 180.58161549696558,
    "inKennedy": true,
    "query": "CADE Kennedy, Kennedy, Bogotá, Colombia",
    "provider": "arcgis",
    "displayName": "Kennedy, Bogotá D.C., Distrito Capital",
    "status": "updated"
  },
  {
    "id": "supercade-americas",
    "name": "SuperCADE Américas",
    "address": "Avenida Carrera 86 No. 43-55 Sur, junto al Portal Américas",
    "oldLat": 4.6048,
    "oldLng": -74.1728,
    "newLat": 4.63035,
    "newLng": -74.15267,
    "score": 165.6946739113141,
    "inKennedy": true,
    "query": "SuperCADE Américas, Kennedy, Bogotá, Colombia",
    "provider": "arcgis",
    "displayName": "Kennedy, Bogotá D.C., Distrito Capital",
    "status": "updated"
  },
  {
    "id": "hospital-occidente-kennedy",
    "name": "Hospital Occidente de Kennedy E.S.E. (Nivel III)",
    "address": "Transversal 74F No. 40B-54 Sur (Av. 1° de Mayo)",
    "oldLat": 4.6175,
    "oldLng": -74.144,
    "newLat": 4.63035,
    "newLng": -74.15267,
    "score": 175.69919874419566,
    "inKennedy": true,
    "query": "Hospital Occidente de Kennedy E.S.E. (Nivel III), Kennedy, Bogotá, Colombia",
    "provider": "arcgis",
    "displayName": "Kennedy, Bogotá D.C., Distrito Capital",
    "status": "updated"
  },
  {
    "id": "hospital-pediatrico-tintal",
    "name": "Hospital Pediátrico El Tintal",
    "address": "Avenida Ciudad de Cali No. 10A-45",
    "oldLat": 4.645,
    "oldLng": -74.16,
    "newLat": 4.63035,
    "newLng": -74.15267,
    "score": 175.1711392318349,
    "inKennedy": true,
    "query": "Hospital Pediátrico El Tintal, Kennedy, Bogotá, Colombia",
    "provider": "arcgis",
    "displayName": "Kennedy, Bogotá D.C., Distrito Capital",
    "status": "updated"
  },
  {
    "id": "caps-patio-bonito",
    "name": "CAPS / USS Patio Bonito",
    "address": "Calle 38 Sur No. 87-07",
    "oldLat": 4.63,
    "oldLng": -74.1755,
    "newLat": 4.63755,
    "newLng": -74.16362,
    "score": 177.8363334188447,
    "inKennedy": true,
    "query": "CAPS / USS Patio Bonito, Kennedy, Bogotá, Colombia",
    "provider": "arcgis",
    "displayName": "Patio Bonito, Kennedy, Bogotá D.C., Distrito Capital",
    "status": "updated"
  },
  {
    "id": "caps-britalia",
    "name": "CAPS / USS Britalia",
    "address": "Calle 46A Sur No. 81-19",
    "oldLat": 4.587,
    "oldLng": -74.1605,
    "newLat": 4.62594,
    "newLng": -74.17169,
    "score": 161.91244854383368,
    "inKennedy": true,
    "query": "CAPS / USS Britalia, Kennedy, Bogotá, Colombia",
    "provider": "arcgis",
    "displayName": "Britalia, Kennedy, Bogotá D.C., Distrito Capital",
    "status": "updated"
  },
  {
    "id": "uss-bellavista",
    "name": "USS Bellavista",
    "address": "Calle 38 Sur No. 94C-29",
    "oldLat": 4.63,
    "oldLng": -74.193,
    "newLat": 4.645529457214,
    "newLng": -74.171326437752,
    "score": 170.26529256810412,
    "inKennedy": true,
    "query": "Calle 38 Sur No. 94C-29, Kennedy, Bogotá, Colombia",
    "provider": "arcgis",
    "displayName": "Calle 38 Sur 94C 29, El Paraiso Kennedy, Bogotá, Distrito Capital",
    "status": "updated"
  },
  {
    "id": "uss-pio-xii",
    "name": "USS Pío XII",
    "address": "Calle 30A Sur No. 78-65",
    "oldLat": 4.6675,
    "oldLng": -74.153,
    "newLat": 4.6377,
    "newLng": -74.14663,
    "score": 168.31607033485324,
    "inKennedy": true,
    "query": "USS Pío XII, Kennedy, Bogotá, Colombia",
    "provider": "arcgis",
    "displayName": "Pío XII, Kennedy, Bogotá D.C., Distrito Capital",
    "status": "updated"
  },
  {
    "id": "uss-bomberos",
    "name": "USS Bomberos",
    "address": "Calle 38 Sur No. 73-41",
    "oldLat": 4.63,
    "oldLng": -74.1405,
    "newLat": 4.63035,
    "newLng": -74.15267,
    "score": 178.31998090351718,
    "inKennedy": true,
    "query": "USS Bomberos, Kennedy, Bogotá, Colombia",
    "provider": "arcgis",
    "displayName": "Kennedy, Bogotá D.C., Distrito Capital",
    "status": "updated"
  },
  {
    "id": "uss-abastos",
    "name": "USS Abastos",
    "address": "Calle 38 Sur No. 82-45",
    "oldLat": 4.63,
    "oldLng": -74.163,
    "newLat": 4.63035,
    "newLng": -74.15267,
    "score": 179.50844342120695,
    "inKennedy": true,
    "query": "USS Abastos, Kennedy, Bogotá, Colombia",
    "provider": "arcgis",
    "displayName": "Kennedy, Bogotá D.C., Distrito Capital",
    "status": "updated"
  },
  {
    "id": "uss-dindalito",
    "name": "USS Dindalito",
    "address": "Calle 42A Sur No. 90-85",
    "oldLat": 4.6075,
    "oldLng": -74.183,
    "newLat": 4.63035,
    "newLng": -74.15267,
    "score": 162.76054687950267,
    "inKennedy": true,
    "query": "USS Dindalito, Kennedy, Bogotá, Colombia",
    "provider": "arcgis",
    "displayName": "Kennedy, Bogotá D.C., Distrito Capital",
    "status": "updated"
  },
  {
    "id": "alcaldia-local-kennedy",
    "name": "Alcaldía Local de Kennedy",
    "address": "Transversal 78K No. 41A-04 Sur",
    "oldLat": 4.6125,
    "oldLng": -74.154,
    "newLat": 4.619894298766,
    "newLng": -74.156682862525,
    "score": 180.77442099284025,
    "inKennedy": true,
    "query": "Transversal 78K No. 41A-04 Sur, Kennedy, Bogotá, Colombia",
    "provider": "arcgis",
    "displayName": "Transversal 78K 41 Sur 4, Ciudad Kennedy Sur, Bogotá, Distrito Capital",
    "status": "updated"
  },
  {
    "id": "casa-justicia-kennedy",
    "name": "Casa de Justicia de Kennedy",
    "address": "Avenida 1 de Mayo No. 38C-51 Sur",
    "oldLat": 4.6275,
    "oldLng": -74.144,
    "newLat": 4.63035,
    "newLng": -74.15267,
    "score": 179.88815266831074,
    "inKennedy": true,
    "query": "Casa de Justicia de Kennedy, Kennedy, Bogotá, Colombia",
    "provider": "arcgis",
    "displayName": "Kennedy, Bogotá D.C., Distrito Capital",
    "status": "updated"
  },
  {
    "id": "jal-kennedy",
    "name": "Junta Administradora Local (JAL)",
    "address": "Transversal 78K No. 41A-04 Sur",
    "oldLat": 4.6125,
    "oldLng": -74.154,
    "newLat": 4.619894298766,
    "newLng": -74.156682862525,
    "score": 180.77442099284025,
    "inKennedy": true,
    "query": "Transversal 78K No. 41A-04 Sur, Kennedy, Bogotá, Colombia",
    "provider": "arcgis",
    "displayName": "Transversal 78K 41 Sur 4, Ciudad Kennedy Sur, Bogotá, Distrito Capital",
    "status": "updated"
  },
  {
    "id": "comisaria-familia-1",
    "name": "Comisaría de Familia 1 Kennedy",
    "address": "Calle 35 Sur No. 73-35",
    "oldLat": 4.645,
    "oldLng": -74.1405,
    "newLat": 4.63035,
    "newLng": -74.15267,
    "score": 173.67269480586194,
    "inKennedy": true,
    "query": "Comisaría de Familia 1 Kennedy, Bogotá, Colombia",
    "provider": "arcgis",
    "displayName": "Kennedy, Bogotá D.C., Distrito Capital",
    "status": "updated"
  },
  {
    "id": "comisaria-familia-2",
    "name": "Comisaría de Familia 2 Kennedy",
    "address": "Avenida 1 de Mayo No. 38C-51 Sur",
    "oldLat": 4.6275,
    "oldLng": -74.144,
    "newLat": 4.63035,
    "newLng": -74.15267,
    "score": 179.56715266831074,
    "inKennedy": true,
    "query": "Comisaría de Familia 2 Kennedy, Kennedy, Bogotá, Colombia",
    "provider": "arcgis",
    "displayName": "Kennedy, Bogotá D.C., Distrito Capital",
    "status": "updated"
  },
  {
    "id": "subdirección-integracion-social-kennedy",
    "name": "Subdirección Local de Integración Social / CDC",
    "address": "Carrera 80 No. 43-43 Sur",
    "oldLat": 4.605,
    "oldLng": -74.158,
    "newLat": 4.63035,
    "newLng": -74.15267,
    "score": 169.45743573280154,
    "inKennedy": true,
    "query": "Subdirección Local de Integración Social / CDC, Kennedy, Bogotá, Colombia",
    "provider": "arcgis",
    "displayName": "Kennedy, Bogotá D.C., Distrito Capital",
    "status": "updated"
  },
  {
    "id": "cdc-lago-timiza",
    "name": "CDC Lago Timiza / Manzana Cuidado",
    "address": "Carrera 74 No. 42-52 Sur",
    "oldLat": 4.61,
    "oldLng": -74.143,
    "newLat": 4.61738,
    "newLng": -74.1517,
    "score": 178.32288612220177,
    "inKennedy": true,
    "query": "CDC Lago Timiza / Manzana Cuidado, Kennedy, Bogotá, Colombia",
    "provider": "arcgis",
    "displayName": "Timiza, Kennedy, Bogotá D.C., Distrito Capital",
    "status": "updated"
  },
  {
    "id": "cdc-bellavista",
    "name": "CDC Bellavista – Integración Social",
    "address": "Calle 38 Sur No. 94C-29",
    "oldLat": 4.63,
    "oldLng": -74.193,
    "newLat": 4.645529457214,
    "newLng": -74.171326437752,
    "score": 170.26529256810412,
    "inKennedy": true,
    "query": "Calle 38 Sur No. 94C-29, Kennedy, Bogotá, Colombia",
    "provider": "arcgis",
    "displayName": "Calle 38 Sur 94C 29, El Paraiso Kennedy, Bogotá, Distrito Capital",
    "status": "updated"
  },
  {
    "id": "centro-crecer-kennedy",
    "name": "Centro Crecer Kennedy (Discapacidad)",
    "address": "Calle 36A Sur No. 78C-08",
    "oldLat": 4.6375,
    "oldLng": -74.154,
    "newLat": 4.63035,
    "newLng": -74.15267,
    "score": 180.7904115684454,
    "inKennedy": true,
    "query": "Calle 36A Sur No. 78C-08, Kennedy, Bogotá, Colombia",
    "provider": "arcgis",
    "displayName": "Kennedy, Bogotá D.C., Distrito Capital",
    "status": "updated"
  },
  {
    "id": "agencia-distrital-empleo-kennedy",
    "name": "Agencia Distrital de Empleo",
    "address": "Transversal 78K No. 41A-04 Sur",
    "oldLat": 4.6125,
    "oldLng": -74.154,
    "newLat": 4.619894298766,
    "newLng": -74.156682862525,
    "score": 180.77442099284025,
    "inKennedy": true,
    "query": "Transversal 78K No. 41A-04 Sur, Kennedy, Bogotá, Colombia",
    "provider": "arcgis",
    "displayName": "Transversal 78K 41 Sur 4, Ciudad Kennedy Sur, Bogotá, Distrito Capital",
    "status": "updated"
  },
  {
    "id": "sena-supercade-americas",
    "name": "SENA – Punto de Empleo SuperCADE Américas",
    "address": "Avenida Carrera 86 No. 43-55 Sur",
    "oldLat": 4.6048,
    "oldLng": -74.1728,
    "newLat": 4.63035,
    "newLng": -74.15267,
    "score": 165.4836739113141,
    "inKennedy": true,
    "query": "Avenida Carrera 86 No. 43-55 Sur, Kennedy, Bogotá, Colombia",
    "provider": "arcgis",
    "displayName": "Kennedy, Bogotá D.C., Distrito Capital",
    "status": "updated"
  },
  {
    "id": "manzana-cuidado-timiza-empleo",
    "name": "Empleabilidad – Manzana Cuidado Timiza",
    "address": "Carrera 74 No. 42-52 Sur",
    "oldLat": 4.61,
    "oldLng": -74.143,
    "newLat": 4.61738,
    "newLng": -74.1517,
    "score": 178.35488612220175,
    "inKennedy": true,
    "query": "Empleabilidad – Manzana Cuidado Timiza, Kennedy, Bogotá, Colombia",
    "provider": "arcgis",
    "displayName": "Timiza, Kennedy, Bogotá D.C., Distrito Capital",
    "status": "updated"
  },
  {
    "id": "compensar-kennedy",
    "name": "Agencia de Empleo Compensar",
    "address": "Avenida 1 de Mayo No. 42A-39 Sur",
    "oldLat": 4.6075,
    "oldLng": -74.144,
    "newLat": 4.63035,
    "newLng": -74.15267,
    "score": 170.33627250662474,
    "inKennedy": true,
    "query": "Agencia de Empleo Compensar, Kennedy, Bogotá, Colombia",
    "provider": "arcgis",
    "displayName": "Kennedy, Bogotá D.C., Distrito Capital",
    "status": "updated"
  }
]